City_ID,City,Country,Max Temp,Current Description,Lat,Lng,Hotel Name
4,Candido De Abreu,BR,67.59,overcast clouds,-24.5669,-51.3333,Hotel Recanto
5,Mar Del Plata,AR,71.83,clear sky,-38.0023,-57.5575,Gran Hotel Mar del Plata
6,Atuona,PF,77.22,few clouds,-9.8,-139.0333,Villa Enata
7,Vaini,TO,78.96,scattered clouds,-21.2,-175.2,Keleti Beach Resort
9,Bengkulu,ID,74.48,overcast clouds,-3.8004,102.2655,Grage Hotel Bengkulu
11,Mersing,MY,76.91,scattered clouds,2.4312,103.8405,Timotel Hotel
12,Rikitea,PF,73.92,light rain,-23.1203,-134.9692,People ThankYou
14,Avarua,CK,75.25,scattered clouds,-21.2078,-159.775,Paradise Inn
15,Ratnagiri,IN,75.7,broken clouds,16.9833,73.3,Hotel Landmark
20,San Quintin,MX,65.12,overcast clouds,30.4833,-115.95,Don Eddie's Sport Fishing Center
23,Pisco,PE,71.65,clear sky,-13.7,-76.2167,Hotel San Isidro Oficial
24,Kruisfontein,ZA,70.07,broken clouds,-34.0033,24.7314,Oyster Bay House Rental
25,Georgetown,MY,78.73,few clouds,5.4112,100.3354,Cititel Penang
26,Saint-Joseph,RE,71.98,scattered clouds,-21.3667,55.6167,"""Plantation Bed and Breakfast"
27,Caucaia,BR,84.15,clear sky,-3.7361,-38.6531,M.O.S. Logística - Filial Fortaleza
30,Hilo,US,76.24,light rain,19.7297,-155.09,Hilo Hawaiian Hotel
31,San Patricio,US,84.29,overcast clouds,28.017,-97.5169,"Motel 6 Sinton, TX"
32,Kahului,US,82.42,few clouds,20.8947,-156.47,Maui Seaside Hotel
33,Puerto Ayora,EC,71.55,broken clouds,-0.7393,-90.3518,Finch Bay Galapagos Hotel
40,Nabire,ID,75.79,overcast clouds,-3.3667,135.4833,Hotel Nusantara I
43,Shirwal,IN,66.67,broken clouds,18.1333,73.9833,HOTEL PRIYANKA BAR AND LODGING
45,Marsa Matruh,EG,67.26,clear sky,31.3525,27.2453,Beau Site
47,Kapaa,US,80.58,scattered clouds,22.0752,-159.319,Sheraton Kauai Coconut Beach Resort
52,Port Alfred,ZA,70.18,overcast clouds,-33.5906,26.891,The Halyards Hotel & Spa
56,Victoria,HK,76.32,clear sky,22.2855,114.1577,Mini Central
57,Hervey Bay,AU,68.68,clear sky,-25.2986,152.8535,Shelly Bay Resort
61,Butaritari,KI,81.03,overcast clouds,3.0707,172.7902,Isles Sunset Lodge
62,Cidreira,BR,69.03,overcast clouds,-30.1811,-50.2056,Hotel Castelo
63,Saint-Philippe,RE,72.99,broken clouds,-21.3585,55.7679,Le four à pain
64,Biak,ID,77.23,overcast clouds,-0.9131,122.8766,Penginapan Kim
67,Inongo,CD,71.69,overcast clouds,-1.95,18.2667,Hotel Du Lac
68,Todos Santos,MX,83.05,clear sky,23.45,-110.2167,Hotel California Todos Santos
72,Kapoeta,SS,80.67,overcast clouds,4.7717,33.5903,Lokoges PHCC
75,Manggar,ID,78.71,overcast clouds,-2.8833,108.2667,Guest Hotel
78,Bathsheba,BB,84.81,few clouds,13.2167,-59.5167,Atlantis Hotel
80,Sao Joao Do Paraiso,BR,78.98,overcast clouds,-15.3136,-42.0144,Avenida Palace Hotel
83,Salalah,OM,80.69,few clouds,17.0151,54.0924,"HAMDAN PLAZA HOTEL SALALAH, an HTG Hotel"
84,Cabo San Lucas,MX,83.5,few clouds,22.8909,-109.9124,Hotel Tesoro Los Cabos
85,Bredasdorp,ZA,66.16,overcast clouds,-34.5322,20.0403,Bredasdorp Country Manor
86,Cape Town,ZA,65.08,clear sky,-33.9258,18.4232,"Radisson Blu Hotel Waterfront, Cape Town"
90,Port Elizabeth,ZA,67.32,clear sky,-33.918,25.5701,39 On Nile Guest House
91,Sedhiou,SN,79.74,overcast clouds,12.7081,-15.5569,Auberge Cheznous
93,Tecoanapa,MX,83.64,few clouds,16.5167,-98.75,Hotel Manglares
95,Tucupita,VE,87.21,scattered clouds,9.0622,-62.051,Hotel Tucupita Su​ite C.A.
97,Oussouye,SN,81.19,overcast clouds,12.485,-16.5469,Auberge du Routard
98,Mahebourg,MU,73.69,scattered clouds,-20.4081,57.7,Shandrani Beachcomber Resort & Spa
99,Mindelo,CV,78.35,scattered clouds,16.8901,-24.9804,Hotel Gaudi
102,Wanning,CN,75.43,overcast clouds,18.8003,110.3967,Paradise Hotel
104,Sao Filipe,CV,78.22,overcast clouds,14.8961,-24.4956,Hotel Xaguate
111,East London,ZA,69.46,overcast clouds,-33.0153,27.9116,Tu Casa
112,Lodwar,KE,82.96,overcast clouds,3.1191,35.5973,Solmar Gracious Hotel
113,San Andres,CO,82.67,overcast clouds,12.5847,-81.7006,Hotel Arena Blanca
114,Zachary,US,79.7,clear sky,30.6485,-91.1565,"Holiday Inn Express & Suites Baton Rouge North, an IHG Hotel"
115,Hualmay,PE,69.42,scattered clouds,-11.0964,-77.6139,Hotel Villa Kitzia Huacho
116,Puerto Del Rosario,ES,71.35,few clouds,28.5004,-13.8627,Hotel JM Puerto del Rosario
125,Ponta Do Sol,PT,69.71,broken clouds,32.6667,-17.1,Hotel do Campo
126,Faanui,PF,78.24,overcast clouds,-16.4833,-151.75,Bora-Bora Pearl Beach Resort & Spa
127,Yarada,IN,80.92,haze,17.65,83.2667,Yarada Jungle Beach Resorts
128,Cayenne,GF,87.84,clear sky,4.9333,-52.3333,Hôtel Le Dronmi
135,Golfito,CR,78.57,moderate rain,8.639,-83.166,Banana Bay Marina
136,Chuy,UY,72.91,clear sky,-33.6971,-53.4616,Nuevo Hotel Plaza
143,Sinnamary,GF,82.36,scattered clouds,5.3833,-52.95,ALETHEIA Appartement Sinnamary
144,Bilma,NE,76.05,overcast clouds,18.6853,12.9164,Expeditions Ténére voyages
145,Basco,PH,80.71,few clouds,20.4487,121.9702,Nathaniel's Lodge
147,Hurghada,EG,70.75,clear sky,27.2574,33.8129,Sea Star Beau Rivage Hotel
150,Doka,SD,79.32,scattered clouds,13.5167,35.7667,منصور عثمان
151,Muisne,EC,76.66,overcast clouds,0.6,-80.0333,Quinta Samay
153,Dakar,SN,88.68,overcast clouds,14.6937,-17.4441,Novotel Dakar
158,Santa Isabel,BR,73.11,light rain,-23.3156,-46.2214,Chácara Sombra do Altíssimo
160,Uvinza,TZ,68.4,broken clouds,-5.1036,30.3911,Crown Lodge and lounge
165,Nouakchott,MR,82.33,overcast clouds,18.0858,-15.9785,HOTEL IMAN
167,Kavaratti,IN,82.31,overcast clouds,10.5669,72.642,Green leaf
170,Denpasar,ID,78.46,few clouds,-8.65,115.2167,OYO 3156 Hotel Warta Dua
171,Ormara,PK,79.95,clear sky,25.2088,64.6357,Kenara Colony House for Rent
172,Houston,US,85.28,overcast clouds,29.7633,-95.3633,"Hotel ICON, Autograph Collection"
175,Zwedru,LR,74.21,light rain,6.0667,-8.1281,Elijah Worjloh
176,Caravelas,BR,80.37,overcast clouds,-17.7125,-39.2481,Pousada dos Navegantes
180,Mahanje,TZ,73.56,broken clouds,-9.9333,35.3333,Amani social Hall
182,Port Blair,IN,77.04,mist,11.6667,92.75,"Welcomhotel By ITC Hotels, Bay Island, Port Blair"
186,Port Hedland,AU,71.65,clear sky,-20.3167,118.5667,The Esplanade Hotel
188,Touros,BR,82.47,clear sky,-5.1989,-35.4608,INN NEW HORIZON
190,Pochutla,MX,85.82,scattered clouds,15.7432,-96.4661,Hotel Posada San Jose
191,Agar,IN,67.6,broken clouds,23.7,76.0167,Bherav Mandir
193,Athol,US,65.79,mist,42.5959,-72.2268,Pequoig House Apartments
194,Namatanai,PG,78.01,overcast clouds,-3.6667,152.4333,Seagulls Inn Namatani
195,Makakilo City,US,77.61,broken clouds,21.3469,-158.0858,Marriott's Ko Olina Beach Club
196,Carutapera,BR,84.22,broken clouds,-1.195,-46.02,Lidera
199,Tual,ID,83.61,overcast clouds,-5.6667,132.75,Grand Vilia Hotel
200,Graneros,CL,66.38,broken clouds,-34.0667,-70.7333,Campo Escuela Callejones Park
201,Bonthe,SL,79.23,few clouds,7.5264,-12.505,Bonthe Holiday Village
203,Los Rastrojos,VE,82.76,light rain,10.0259,-69.2417,MakeupAngells
209,Arraial Do Cabo,BR,80.56,few clouds,-22.9661,-42.0278,Pousada Porto Praia
210,Mangrol,IN,79.66,few clouds,21.1167,70.1167,Hotel The Royal Honours
212,Notse,TG,76.78,moderate rain,6.95,1.1667,Le Berceau
213,Kaduna,NG,78.19,clear sky,10.5222,7.4383,HAMDALA HOTEL
214,Acarau,BR,84.06,overcast clouds,-2.8856,-40.12,castelo pizzaria
224,Soyo,AO,77.67,broken clouds,-6.1349,12.3689,Hospedaria ndozi'ame
228,Jieshi,CN,72.39,scattered clouds,22.8134,115.8257,Yuehai Hotel
231,Madang,PG,75.15,overcast clouds,-5.2246,145.7966,Comfort Inn Hotel
234,Talara,PE,74.16,clear sky,-4.5772,-81.2719,Hostal Oro Negro
235,Nouadhibou,MR,69.78,clear sky,20.931,-17.0347,El Medina
237,Camopi,GF,83.19,light rain,3.1655,-52.3158,La pousada
238,Singarayakonda,IN,77.5,moderate rain,15.25,80.0333,Sri Nrk A/C Lodge
241,New Smyrna Beach,US,86.02,broken clouds,29.0258,-80.927,Hampton Inn New Smyrna Beach
242,Del Rio,US,66.31,overcast clouds,29.3627,-100.8968,"Holiday Inn Express & Suites del Rio, an IHG Hotel"
243,Eydhafushi,MV,80.53,overcast clouds,5.1033,73.0708,Soneva Fushi
247,Piacabucu,BR,81.39,broken clouds,-10.4056,-36.4344,Piaçabuçu News
254,Najran,SA,68.65,clear sky,17.4924,44.1277,محمد هادي ال فطيح
259,Itarema,BR,83.53,overcast clouds,-2.9248,-39.9167,"Sea Lounge! Bar, Club & Restaurant"
260,Inhambane,MZ,76.26,clear sky,-23.865,35.3833,Oceano
265,Viedma,AR,69.13,moderate rain,-40.8135,-62.9967,Hotel Cristal
266,Kavieng,PG,82.38,light rain,-2.5744,150.7967,Nusa Island Retreat
268,Naze,JP,72.52,light rain,28.3667,129.4833,Shishime Hotel
270,Souillac,MU,73.78,scattered clouds,-20.5167,57.5167,Shanti Maurice Resort & Spa
272,Tabou,CI,77.45,overcast clouds,4.423,-7.3528,hotêl doufoulougou
273,Atar,MR,81.27,overcast clouds,20.5169,-13.0499,Oumou Elghoura
275,Aden,YE,79.41,clear sky,12.7794,45.0367,Sama Emirate Hotel
276,Lompoc,US,69.69,clear sky,34.6391,-120.4579,"Holiday Inn Express Lompoc, an IHG Hotel"
281,Tarakan,ID,80.49,overcast clouds,3.3,117.6333,RedDoorz Syariah near Taman Berlabuh Tarakan
283,Pimentel,PE,70.09,clear sky,-6.8367,-79.9342,Hotel Puerto del Sol
284,Bubaque,GW,83.46,overcast clouds,11.2833,-15.8333,"Casa Dora, Bubaque"
285,Christiana,ZA,66.74,broken clouds,-27.914,25.1611,At-Neli Guesthouse
289,Karratha,AU,72.81,clear sky,-20.7377,116.8463,ibis Styles Karratha
290,Sampit,ID,73.85,light rain,-2.5333,112.95,Aquarius Boutique Hotel Sampit
292,Juegang,CN,67.91,clear sky,32.3174,121.1855,Rudong Y Hotel
293,Bambous Virieux,MU,73.65,scattered clouds,-20.3428,57.7575,Casa Tia Villa
295,Gigmoto,PH,80.02,overcast clouds,13.7796,124.39,Cj's Travellers Inn
302,Ewa Beach,US,79.02,broken clouds,21.3156,-158.0072,Base Lodging
310,Vanimo,PG,77.09,overcast clouds,-2.6741,141.3028,Vahmoneh Lodge Vanimo
312,Aswan,EG,74.5,clear sky,24.0934,32.907,Nuba Nile
314,Lorengau,PG,80.28,overcast clouds,-2.0226,147.2712,Lorengau Harbourside Hotel
315,Dunmore Town,BS,81.41,overcast clouds,25.5,-76.65,Coral Sands Hotel
316,Nishihara,JP,76.68,broken clouds,26.1842,127.7558,Minshuku Agaihama
319,Mercedes,AR,89.85,overcast clouds,-34.6515,-59.4307,Posada del Inti Centro
320,Fukue,JP,69.8,clear sky,32.6881,128.8419,Goto Guesthouse Utojuku & SA Car Rental
321,Namibe,AO,66.88,broken clouds,-15.1961,12.1522,Hotel Chik Chik Namibe
324,Manoel Urbano,BR,88.14,overcast clouds,-8.8389,-69.2597,Baixada Beira Rio
327,Acapulco,MX,84.02,clear sky,16.8634,-99.8901,HS Hotsson Smart Acapulco
334,Cabedelo,BR,84.87,few clouds,-6.9811,-34.8339,Pousada Camboinha
335,Lafia,NG,82.72,overcast clouds,8.4833,8.5167,Low Cost Housing Estate
338,Roebourne,AU,73.8,clear sky,-20.7833,117.1333,Latitude20 Roebourne Village
339,Coro,VE,82.92,overcast clouds,11.4045,-69.6734,Federal
341,Petapa,GT,78.15,scattered clouds,14.5028,-90.5517,La Visión del Espíritu Santo
342,Hithadhoo,MV,80.85,overcast clouds,-0.6,73.0833,Scoop Guest House
344,Bardiyah,LY,66.25,few clouds,31.7561,25.0865,بورتو بردية
349,Camocim,BR,85.33,broken clouds,-2.9022,-40.8411,Ilha Praia Hotel
352,Bembereke,BJ,83.82,overcast clouds,10.2283,2.6634,Hotel Bio Guera
353,Banda Aceh,ID,75.92,overcast clouds,5.5577,95.3222,OYO 884 Rumoh PMI Hotel
354,Yichang,CN,70.54,overcast clouds,30.7144,111.2847,Gezhouba Hotel
358,San Javier,ES,69.98,few clouds,37.8063,-0.8374,Hotel Mar Menor
359,Cockburn Town,TC,84.16,scattered clouds,21.4612,-71.1419,Osprey Beach Hotel
361,Domoni,KM,76.3,clear sky,-12.2569,44.5319,Al Djadid
362,Manicore,BR,89.55,thunderstorm,-5.8092,-61.3003,Hotel Durval
364,Sibiti,CG,69.15,broken clouds,-3.6819,13.3499,Gaby et confort
367,Alyangula,AU,82.49,few clouds,-13.8483,136.4192,Groote Eylandt Lodge
369,Sao Luis Do Quitunde,BR,81.84,scattered clouds,-9.3183,-35.5611,Sao dos satos lins
371,Lazaro Cardenas,MX,84.51,clear sky,17.9583,-102.2,HOTEL QUINTA ANTIGUA
375,Olinda,BR,82.13,few clouds,-8.0089,-34.8553,Flat Quatro Rodas Olinda
376,Vila Velha,BR,80.55,few clouds,-20.3297,-40.2925,Hotel Vitória Palace
377,Alor Setar,MY,78.98,few clouds,6.121,100.3601,Hotel ASRC
378,Gushikawa,JP,76.62,broken clouds,26.3544,127.8686,Kirari Guest House
380,Alofi,NU,78.69,broken clouds,-19.0595,-169.9187,Taloa Heights
381,Yulara,AU,77.92,clear sky,-25.2406,130.9889,Desert Gardens Hotel - Ayers Rock Resort
382,Dingle,PH,76.08,overcast clouds,10.9995,122.6711,SEGAYA PROPERTY
384,Saint-Pierre,RE,73.08,clear sky,-21.3393,55.4781,Alize Plage
386,Miri,MY,77.14,few clouds,4.4148,114.0089,"Mega Hotel, Miri"
387,Sur,OM,77.41,clear sky,22.5667,59.5289,Sur Plaza Hotel
388,Buin,CL,69.12,overcast clouds,-33.7333,-70.75,Paihuen
389,Cap Malheureux,MU,71.47,scattered clouds,-19.9842,57.6142,Pereybere Hotel & Spa
391,Riohacha,CO,86.11,broken clouds,11.5444,-72.9072,Hotel Taroa
394,Bethel,US,65.48,moderate rain,41.3712,-73.414,Courtyard by Marriott Danbury
395,Sal Rei,CV,79.0,broken clouds,16.1833,-22.9167,Marine Club Beach Resort
396,Asyut,EG,68.18,clear sky,27.181,31.1837,فندق ميس إيجيبت Miss Egypt Hotel
397,Imbituba,BR,68.25,light rain,-28.24,-48.6703,Praia Hotel Imbituba
402,Maragogi,BR,80.71,few clouds,-9.0122,-35.2225,Salinas do Maragogi All Inclusive Resort
407,Omboue,GA,77.2,light rain,-1.5746,9.2618,Hotel Olako
410,Mayo,US,72.5,haze,38.8876,-76.5119,Resorts Resource Group International
414,Necochea,AR,68.68,broken clouds,-38.5473,-58.7368,dyd -mar Hotel
415,Majene,ID,78.06,overcast clouds,-3.5403,118.9707,Kost Putri RABBANI
417,Loandjili,CG,76.77,overcast clouds,-4.7561,11.8578,Résidence ARCHANGE
423,Zhuhai,CN,74.98,clear sky,22.2769,113.5678,珠海粤财假日酒店
424,Matay,EG,67.91,clear sky,28.419,30.7792,Nag Aespen
428,Oranjestad,AW,82.35,scattered clouds,12.524,-70.027,Divi Village Golf & Beach Resort
430,Broken Hill,AU,71.35,overcast clouds,-31.95,141.4333,Royal Exchange Hotel
434,Tazmalt,DZ,66.34,overcast clouds,36.3868,4.3989,Hôtel Numédia
435,Bima,ID,77.58,overcast clouds,-8.4667,118.7167,Lambitu Hotel
441,Salvador,SV,79.2,scattered clouds,13.8333,-88.9167,Chico's Ranch
443,Boa Vista,BR,85.98,scattered clouds,2.8197,-60.6733,Aipana Plaza Hotel
444,Mount Isa,AU,71.37,light rain,-20.7333,139.5,ibis Styles Mt Isa Verona
446,Cape Canaveral,US,88.07,clear sky,28.4058,-80.6048,Residence Inn by Marriott Cape Canaveral Cocoa Beach
452,Harper,LR,77.65,overcast clouds,4.375,-7.7169,Screensaver
453,Saint-Leu,RE,72.46,light rain,-21.15,55.2833,La Caz Oceane
458,Morehead,US,68.99,clear sky,37.2711,-87.1764,CCI Express Inn
460,Bushehr,IR,80.69,broken clouds,28.9684,50.8385,Yas Hotel
461,Tamandare,BR,80.98,few clouds,-8.7597,-35.1047,Pousada 100 Passos
462,Manzanillo,CU,84.42,overcast clouds,20.3433,-77.1167,"HOSTAL ""THE YELLOW HOUSE"""
466,Porto Novo,BJ,82.22,broken clouds,6.4965,2.6036,Tour Eiffel Hotel Benin
467,Pak Phanang,TH,79.07,moderate rain,8.3511,100.202,Green Park Inn Hotel
470,Chengam,IN,70.59,very heavy rain,12.3,78.8,C.T.S.Lodge
472,Wichian Buri,TH,73.51,overcast clouds,15.6578,101.106,Mit Sali Hotel
473,Progreso,MX,87.12,clear sky,21.2833,-89.6667,Playa Linda Hotel
474,Itoman,JP,77.4,broken clouds,26.1247,127.6694,Southern Beach Hotel & Resort Okinawa
475,Grand Gaube,MU,73.8,few clouds,-20.0064,57.6608,Veranda Paul et Virginie Hotel & Spa
479,Celestun,MX,81.86,clear sky,20.8667,-90.4,Posada Lilia
480,Buala,SB,75.69,moderate rain,-8.145,159.5921,Maringe Lagoon Lodge
481,Merta,IN,69.3,clear sky,26.65,74.0333,V Resorts Ganthiya
483,Gasa,PS,70.29,clear sky,31.5,34.4667,رابطة الفنانين الفلسطينيين
485,Evans,US,68.52,mist,33.5337,-82.1307,Evans hide out
488,Conde,BR,83.66,few clouds,-7.2597,-34.9075,Pousada Beija Flor
490,Himensulan,PH,78.66,broken clouds,10.5967,124.2821,Mangodlong Paradise Beach Resort
491,Bell Ville,AR,88.66,overcast clouds,-32.6259,-62.6887,Hotel Central
492,Auki,SB,77.43,moderate rain,-8.7676,160.7034,Auki Motel
494,Houma,US,80.6,clear sky,29.5958,-90.7195,Courtyard by Marriott Houma
495,Sao Pedro,BR,71.2,overcast clouds,-22.5486,-47.9139,Inn Dinosaur Valley
500,Ziyang,CN,67.06,clear sky,29.2497,117.8547,Wuyuan Great Wall Hotel
501,Puerto Colombia,CO,73.49,light rain,10.9878,-74.9547,Hotel El Emigrante
502,Kununurra,AU,78.78,clear sky,-15.7667,128.7333,Hotel Kununurra
504,Bowen,AU,72.28,clear sky,-20.0167,148.2333,Castle Motor Lodge Motel
507,Limbang,MY,77.11,overcast clouds,4.75,115.0,Purnama Hotel
509,Lircay,PE,66.2,broken clouds,-12.9896,-74.7205,Recreo Hospedaje correito
510,Valera,VE,78.28,overcast clouds,9.3178,-70.6036,Hotel Camino Real
511,Portel,BR,89.47,overcast clouds,-1.9356,-50.8211,Kitnet do Marcos
512,Kutum,SD,70.5,clear sky,14.2,24.6667,Dibbo areaمنطقة دبو
514,Guerrero Negro,MX,69.08,overcast clouds,27.9769,-114.0611,"Casa Laguna, Bed & Breakfast"
516,Kudahuvadhoo,MV,81.45,overcast clouds,2.6708,72.8944,Niyama Private Islands Maldives
518,Sawakin,SD,84.33,overcast clouds,19.1059,37.3321,فندق الدويم
519,Soure,BR,82.47,overcast clouds,-0.7167,-48.5233,Casarão da Amazônia
523,Sao Jose Da Coroa Grande,BR,80.82,few clouds,-8.8978,-35.1478,Crôa Mares Hotel
524,Aquiraz,BR,89.46,broken clouds,-3.9014,-38.3911,Pousada Rua Camurupim
525,Huarmey,PE,70.23,scattered clouds,-10.0681,-78.1522,Hotel Miramar
529,Meulaboh,ID,75.85,moderate rain,4.1363,96.1285,Kost Pria
532,General Roca,AR,72.3,scattered clouds,-39.0333,-67.5833,Hotel El Recreo
533,Atambua,ID,74.93,broken clouds,-9.1061,124.8925,Ros Muskanan
536,Shenjiamen,CN,68.99,few clouds,29.9576,122.298,Jinjiang Inn Zhoushan Putuo Shenjiamen
538,Kirakira,SB,79.41,overcast clouds,-10.4544,161.9205,SanBiz Lodge
539,Luganville,VU,78.15,moderate rain,-15.5333,167.1667,The Espiritu Hotel
542,Sambava,MG,72.36,scattered clouds,-14.2667,50.1667,Melrose
547,Marsh Harbour,BS,81.91,clear sky,26.5412,-77.0636,Abaco Beach Resort
548,Laela,TZ,67.87,broken clouds,-8.5667,32.05,Samazi laela
551,Acajutla,SV,82.4,overcast clouds,13.5928,-89.8275,CASA DE LA PERRA
553,Labrea,BR,87.28,overcast clouds,-7.2586,-64.7981,Hotel Novo Horizonte
555,Manjacaze,MZ,72.61,broken clouds,-24.7117,33.8828,Hotel Gani
556,Mana,GF,81.73,broken clouds,5.6592,-53.7767,LE SAMANA
558,Itarare,BR,69.31,moderate rain,-24.1125,-49.3317,Hospedaria Frei Caneca
562,Pemex,MX,83.37,clear sky,18.4395,-96.3461,Hotel Alquimia Premier
565,Rocha,UY,74.84,clear sky,-34.4833,-54.3333,Hotel Arrarte
566,Los Llanos De Aridane,ES,67.75,few clouds,28.6585,-17.9182,Valle Aridane
567,Sagua La Grande,CU,83.39,moderate rain,22.8067,-80.0756,Hotel Telégrafo
570,Kieta,PG,78.37,light rain,-6.2167,155.6333,Uruna Bay Retreat
572,Maracaibo,VE,83.21,broken clouds,10.6317,-71.6406,Motel Aladdin
574,Bandarbeyla,SO,79.47,overcast clouds,9.4942,50.8122,JABIR HOTEL
577,Ahuimanu,US,79.2,scattered clouds,21.4447,-157.8378,Paradise Bay Resort
578,Sao Joao Da Barra,BR,82.49,broken clouds,-21.6403,-41.0511,Pousada Porto De Canoas
582,Filadelfia,US,69.89,moderate rain,39.9523,-75.1638,"The Ritz-Carlton, Philadelphia"
583,Sirsi,IN,71.38,overcast clouds,14.6167,74.85,Tripvillas @ Sapna Yatri Nivas
584,Topolobampo,MX,76.91,clear sky,25.6,-109.05,Hotel Marina Topolobampo
587,Yegros,PY,86.2,broken clouds,-26.45,-56.4,Damián Paiva
590,Benghazi,LY,68.4,clear sky,32.1167,20.0667,Tibesti Hotel
592,Noumea,NC,77.0,overcast clouds,-22.2763,166.4572,Hôtel Le Lagon
595,Caninde De Sao Francisco,BR,87.75,broken clouds,-9.66,-37.7894,Xingó Parque Hotel
598,Teknaf,BD,70.43,clear sky,20.8624,92.3058,Forestry Guesthouse
603,Pilani,IN,69.17,clear sky,28.3684,75.6041,Hotel Sunshine Pilani
605,Nakhon Phanom,TH,70.29,scattered clouds,17.3333,104.4167,ป่ายางรีสอร์ท
607,Semarang,ID,75.99,heavy intensity rain,-6.9932,110.4203,Quest Hotel Simpang Lima Semarang
608,Richards Bay,ZA,72.46,overcast clouds,-28.783,32.0377,BON Hotel Waterfront Richards Bay
610,Maxixe,MZ,75.33,clear sky,-23.8597,35.3472,Oceano
611,Sundumbili,ZA,71.8,overcast clouds,-29.1337,31.3975,The Plover Bed and Breakfast
614,Kolar,IN,68.76,heavy intensity rain,13.1333,78.1333,Hotel Saidham
617,Freetown,SL,82.11,light rain,8.484,-13.2299,The Country Lodge Hotel
618,Kalamb,IN,67.1,scattered clouds,19.05,73.95,Hotel Ravikiran
620,Buritis,BR,88.38,moderate rain,-15.6178,-46.4233,Hotel Rainha do Vale
621,Kulhudhuffushi,MV,81.1,overcast clouds,6.6221,73.07,Haajy Guest House 1
622,Sulangan,PH,82.53,scattered clouds,11.1373,123.7228,Maia's Beach Resort
625,Paracatu,BR,81.37,light rain,-17.2222,-46.8747,Hotel Paracatu Plaza
629,Iquitos,PE,89.64,scattered clouds,-3.7481,-73.2472,Cortez Malaga Techy Caroly
630,Greenville,US,80.55,overcast clouds,35.6127,-77.3663,"Holiday Inn Express Greenville, an IHG Hotel"
631,Tongzi,CN,65.89,overcast clouds,28.7829,105.0877,Jiayuan Hotel
632,Haimen,CN,73.29,overcast clouds,23.1935,116.6142,Shantou Chaoyang Donghui Hotel
634,Maha Sarakham,TH,77.18,overcast clouds,16.3333,103.6667,บุญทัน​บาเบอร์
635,Dargaville,NZ,65.41,scattered clouds,-35.9333,173.8833,Parkview Motel
637,Tamiahua,MX,82.65,clear sky,21.2667,-97.45,Mission Of The Sun Hotel
638,Kabinda,CD,65.79,moderate rain,-6.1333,24.4833,Village Mianda Mutole
639,Port Moresby,PG,75.65,overcast clouds,-9.4431,147.1797,Lamana Hotel (Port Moresby)
640,Mabaruma,GY,82.62,broken clouds,8.2,-59.7833,Monty Brooms Guest House
643,Sohag,EG,68.29,clear sky,26.557,31.6948,Civil Registry - Sohag 1
647,Diu,IN,77.52,few clouds,20.7141,70.9822,Hotel Relax Inn
648,Tete,MZ,86.09,scattered clouds,-16.1564,33.5867,Zambeze Paraíso Misterioso
654,Mahajanga,MG,80.62,scattered clouds,-15.7167,46.3167,Hôtel Restaurant Gourmand Coco Lodge Majunga
660,Cardinal,CA,65.21,overcast clouds,44.7834,-75.3826,Johnstown Motel
664,Buenos Aires,AR,85.89,clear sky,-34.6132,-58.3772,Hotel NH Buenos Aires City
667,Jizan,SA,83.34,clear sky,17.3333,42.6667,شهدان. ابوالحجر
669,Bon Air,US,75.02,thunderstorm with light rain,37.5249,-77.5578,DoubleTree by Hilton Hotel Richmond - Midlothian
671,Oistins,BB,84.29,few clouds,13.0667,-59.5333,Butterfly Beach Hotel
672,Nueva Loja,EC,87.82,few clouds,0.0847,-76.8828,Limoncocha Great Hotel
673,Safaga,EG,73.49,clear sky,26.7292,33.9365,Lamar Resort Abu Soma
674,Benemerito De Las Americas,MX,88.95,clear sky,16.5167,-90.6439,Residencia Univeresitaria
675,Angoche,MZ,78.1,clear sky,-16.2325,39.9086,Guest House HESADA
678,Port-De-Bouc,FR,69.96,clear sky,43.4,4.9833,HOTEL RESIDENCE LES AIGUADES
680,Palu,ID,74.82,overcast clouds,-0.8917,119.8707,Hotel Santika Palu
681,Winthrop,US,72.52,overcast clouds,42.3751,-70.9828,Courtyard by Marriott Boston Logan Airport
683,Concepcion Del Oro,MX,73.06,clear sky,24.6333,-101.4167,Hotel Hacienda San Javier
685,El Retorno,CO,84.97,broken clouds,2.3302,-72.6276,Hostal la posada de Rita
686,Sale,MA,65.75,clear sky,34.0389,-6.8166,Hôtel Mercure Rabat Sheherazade
688,Sabang,ID,77.27,light rain,5.8933,95.3214,Hotel Citra
690,Maningrida,AU,82.33,few clouds,-12.0667,134.2667,Dhukurrdji Lodge
691,Sokoni,TZ,78.66,clear sky,-6.4333,39.55,Ujamaa Beach Resort
692,Tautira,PF,77.68,broken clouds,-17.7333,-149.15,Pension Oaoa
693,Gizo,SB,80.87,moderate rain,-8.103,156.8419,Imagination Island
697,Prado,BR,77.04,overcast clouds,-17.3411,-39.2208,INN CORNER RIVER - PRADO - BAHIA - HOUSING AND HOTEL
698,Zhuzhou,CN,71.73,few clouds,27.8333,113.15,Feifan Chengpin Hotel Shanmutang
701,Catuday,PH,79.3,clear sky,16.2923,119.8062,Benjie's Kubo & Cottages
704,Wajid,SO,78.49,broken clouds,3.8093,43.2471,xamdihotelresturant114
711,Kotar,IN,67.68,clear sky,24.7167,80.9833,Manmohan Tripathi
712,Dibulla,CO,81.23,moderate rain,11.2725,-73.3091,Hospedaje Dibulla Beach
715,Belmonte,BR,78.39,overcast clouds,-15.8631,-38.8828,Pousada Monte Carmelo O Pão
719,Arlit,NE,79.7,clear sky,18.7369,7.3853,Case de Passage De la Prefecture
722,Kawalu,ID,71.87,overcast clouds,-7.3817,108.2082,West Jontor
723,Sarangani,PH,82.8,overcast clouds,5.4033,125.4636,JVL Inn and Cafeteria
724,Diamantino,BR,79.34,moderate rain,-14.4086,-56.4461,Hotel Delta
726,Grand-Lahou,CI,77.92,light rain,5.1367,-5.0242,Hotel Beatitude de Grand Lahou
727,Morgan City,US,81.0,clear sky,29.6994,-91.2068,Hampton Inn & Suites Morgan City
